[
{ "Connection_st": "54490", "Name": "CAMPINGPLASSEN", "ID": 1, "X": 11.50658995, "Y": 64.02307846, "Adress": "Guldbergaunet Sommerhotell & Camping, 34, Elvenget, Guldbergaunet, Steinkjer, Trøndelag, 7716, Norge", "latlong": "64.02275130000001,11.506297865192142", "Charging_points": 2,  "connection": 840},
{ "Connection_st": "54520", "Name": "TRIBUNEN", "ID": 2, "X": 11.50858082, "Y": 64.01985286, "Adress": "27, Guldbergaunet, Steinkjer, Trøndelag, 7716, Norge", "latlong": "64.0197905,11.5088635", "Charging_points": 2,  "connection": 862 }, 
{ "Connection_st": "54200", "Name": "STEINKJERHALLEN", "ID": 3, "X": 11.51049973, "Y": 64.02053583, "Adress": "Guldbergaunet, Steinkjer, Trøndelag, 7713, Norge", "latlong": "64.01987635,11.50993774556358", "Charging_points": 2, "connection": 756}, 
{ "Connection_st": "54370", "Name": "HANDELSKOLEN", "ID": 4, "X": 11.51510511, "Y": 64.02064091, "Adress": "10, Elvenget, Guldbergaunet, Steinkjer, Trøndelag, 7716, Norge", "latlong": "64.0200423,11.5156016", "Charging_points": 2,  "connection": 816 }, 
{ "Connection_st": "54270", "Name": "UNDOMSSKOLE", "ID": 5, "X": 11.51494047, "Y": 64.01902371, "Adress": "Steinkjer videregående skole, Elvenget, Guldbergaunet, Steinkjer, Trøndelag, 7716, Norge", "latlong": "64.01917305,11.515212688879348", "Charging_points": 2,  "connection": 759 },
{ "Connection_st": "54680", "Name": "SKOMAKERGATA", "ID": 6, "X": 11.5052303, "Y": 64.01730342, "Adress": "47, Ogndalsvegen, Guldbergaunet, Steinkjer, Trøndelag, 7716, Norge", "latlong": "64.0171435,11.5050839", "Charging_points": 2, "CCS": 1, "Type2": 1, "Tesla": 0, "connection": 914 }, 
{ "Connection_st": "54540", "Name": "GULDBERGAUNET", "ID": 7, "X": 11.51084003, "Y": 64.01786516, "Adress": "Steinkjer ungdomsskole, Svedjanvegen, Guldbergaunet, Steinkjer, Trøndelag, 7713, Norge", "latlong": "64.01854335,11.511755322970949", "Charging_points": 2,"connection":869 }, 
{ "Connection_st": "54560", "Name": "VEGVESEN", "ID": 8, "X": 11.5119219, "Y": 64.01716299, "Adress": "Guldbergaunet, Steinkjer, Trøndelag, 7713, Norge", "latlong": "64.01722868291444,11.512034725748956", "Charging_points": 2, "connection": 882 }, 
{ "Connection_st": "54660", "Name": "BERGVEGEN", "ID": 9, "X": 11.51906763, "Y": 64.01638765, "Adress": "1, Bergvegen, Guldbergaunet, Steinkjer, Trøndelag, 7716, Norge", "latlong": "64.0165193,11.5188858", "Charging_points": 2, "connection":909 }, 
{ "Connection_st": "54530", "Name": "OGNDALSV", "ID": 10, "X": 11.52489106, "Y": 64.01860535, "Adress": "Midjoøra, Ogndalsvegen, Guldbergaunet, Steinkjer, Trøndelag, 7716, Norge", "latlong": "64.01936805,11.52502337477849", "Charging_points": 2, "connection":864},
{ "Connection_st": "54330", "Name": "MDJO GÅRD", "ID": 11, "X": 11.53022031, "Y": 64.02026119, "Adress": "138, Ogndalsvegen, Guldbergaunet, Steinkjer, Trøndelag, 7716, Norge", "latlong": "64.020394,11.5299838", "Charging_points": 2, "connection":801 }, 
{ "Connection_st": "54430", "Name": "RISGROPA", "ID": 12, "X": 11.54236136, "Y": 64.02194034, "Adress": "Helgesvegen, Guldbergaunet, Steinkjer, Trøndelag, 7716, Norge", "latlong": "64.02191127062225,11.542305707441297", "Charging_points": 2, "connection":820 }, 
{ "Connection_st": "54695", "Name": "BYASOSSEN SKOLE", "ID": 13, "X": 11.54280213, "Y": 64.02929345, "Adress": "Byafossen skole, Helgesvegen, Byafossen, Guldbergaunet, Asp, Steinkjer, Trøndelag, 7716, Norge", "latlong": "64.0291596,11.542639742928252", "Charging_points": 2,  "connection":931 }, 
{ "Connection_st": "54690", "Name": "HELGESVEIEN", "ID": 14, "X": 11.54413778, "Y": 64.02781948000001, "Adress": "Helgesvegen, Byafossen, Guldbergaunet, Asp, Steinkjer, Trøndelag, 7716, Norge", "latlong": "64.02748901081078,11.544422592853042", "Charging_points": 2,"connection":925 },
{ "Connection_st": "52140", "Name": "ROARVEGEN", "ID": 15, "X": 11.54724984, "Y": 64.03445177, "Adress": "5, Roarvegen, Byafossen, Guldbergaunet, Asp, Steinkjer, Trøndelag, 7716, Norge", "latlong": "64.0345285,11.5468914", "Charging_points": 2, "connection":682 } 
]
